{
    "user": [
      {
        "id": "1",
        "name": "krishna",
        "address": "sri ram nagar, sammatipuram madurai 16",
        "mobileno": "8870086456",
        "lat": "9.930737",
        "lng": "78.088598",
        "routes": [
          {
            "lat": "9.930310",
            "lng": "78.095545"
          },
          {
            "lat": "9.920310",
            "lng": "78.105545"
          },
          {
            "lat": "9.940310",
            "lng": "78.115545"
          }
        ]
      },
      {
        "id": "2",
        "name": "raja",
        "address": "kalavasal, sammatipuram madurai 16",
        "mobileno": "8870086456",
        "lat": "9.930310",
        "lng": "78.095545",
        "routes": [
          {
            "lat": "9.930310",
            "lng": "78.095545"
          },
          {
            "lat": "9.920310",
            "lng": "78.105545"
          },
          {
            "lat": "9.940310",
            "lng": "78.115545"
          }
        ]
      },
      {
        "id": "3",
        "name": "raja VR",
        "address": "arasaradi, madurai 16",
        "mobileno": "8870086456",
        "lat": "9.930310",
        "lng": "78.095545",
        "routes": [
          {
            "lat": "9.930310",
            "lng": "78.095545"
          },
          {
            "lat": "9.920310",
            "lng": "78.105545"
          },
          {
            "lat": "9.940310",
            "lng": "78.115545"
          }
        ]
      },
      {
        "id": "4",
        "name": "raja1 VR",
        "address": "ss colony, madurai 16",
        "mobileno": "8870086456",
        "lat": "9.923255",
        "lng": "78.096187",
        "routes": [
          {
            "lat": "9.930310",
            "lng": "78.095545"
          },
          {
            "lat": "9.920310",
            "lng": "78.105545"
          },
          {
            "lat": "9.940310",
            "lng": "78.115545"
          }
        ]
      }
    ]
  }